[{"Name":"Maderas para obra","Quantity":120,"Cost":12000,"Location":{"Found":true,"AddresLine":"Calle Burdeos 2728","CountryRegion":"Uruguay","FormattedAddress":"Calle Burdeos 2728, Montevideo, 12800","Locality":"Montevideo","PostalCode":"12800","Latitude":-34.88066,"Longitude":-56.27149},"Availability":false,"RegularOffers":false,"Tags":["Maderas","tablas","Pino"],"DeliveryDate":"2021-11-30T11:18:32.7497209Z","PublicationDate":"2021-11-29T18:21:57.3627323-03:00","Company":{"Name":"Maderas del cerro S.A","Id":"2086164283","Location":{"Found":true,"AddresLine":"Calle Burdeos 2728","CountryRegion":"Uruguay","FormattedAddress":"Calle Burdeos 2728, Montevideo, 12800","Locality":"Montevideo","PostalCode":"12800","Latitude":-34.88066,"Longitude":-56.27149},"Phone":"098239339","AreaOfWork":{"Name":"construccion"}},"Material":{"Name":"Tablas de 15 pulgadas","Type":{"Name":"Maderas","Description":"Maderas en tablas"},"Unit":"Tablas"},"Offerpermissions":[],"Idd":1,"Entrepreneur":"1262655798"},{"Name":"Mesas de madera","Quantity":50,"Cost":100,"Location":{"Found":true,"AddresLine":"Calle Colorado 2326","CountryRegion":"Uruguay","FormattedAddress":"Calle Colorado 2326, Montevideo, 11800","Locality":"Montevideo","PostalCode":"11800","Latitude":-34.87812,"Longitude":-56.16776},"Availability":false,"RegularOffers":true,"Tags":["madera","artesano","roble","artesanal"],"DeliveryDate":"2021-11-30T11:18:32.7497209Z","PublicationDate":"2021-11-29T18:56:06.1799257-03:00","Company":{"Name":"Belen","Id":"1572524517","Location":{"Found":true,"AddresLine":"Calle Belgrano 2854","CountryRegion":"Uruguay","FormattedAddress":"Calle Belgrano 2854, Montevideo, 11600","Locality":"Montevideo","PostalCode":"11600","Latitude":-34.89009,"Longitude":-56.15441},"Phone":"069852147","AreaOfWork":{"Name":"comercio"}},"Material":{"Name":"mesas","Type":{"Name":"Maderas","Description":"Maderas en tablas"},"Unit":"unidad"},"Offerpermissions":[{"Name":"Materiales organicos"}],"Idd":1,"Entrepreneur":"1262655798"}]